City,Latitude,Longitude,Temperature,Humidity (%),Cloudiness (%),Wind Speed (mph),Date,Country
Hobart,-42.8794,147.3294,61.68,59,75,9.22,1619827429,AU
Cape Town,-33.9258,18.4232,57.02,82,0,9.22,1619827326,ZA
São Filipe,14.8961,-24.4956,72.84,76,28,9.17,1619827437,CV
Butaritari,3.0707,172.7902,83.39,74,78,12.77,1619827437,KI
Atuona,-9.8,-139.0333,79.27,68,0,4.43,1619827437,PF
Cabo San Lucas,22.8909,-109.9124,81.14,32,1,14.97,1619827406,MX
Saldanha,-33.0117,17.9442,55.4,71,0,8.05,1619827438,ZA
Katsuura,35.1333,140.3,66.63,68,20,5.75,1619827438,JP
Ribeira Grande,38.5167,-28.7,60.15,76,99,10.36,1619827438,PT
Jamestown,42.097,-79.2353,40.41,65,90,11.5,1619827163,US
The Valley,18.217,-63.0578,78.6,73,20,8.05,1619827439,AI
Port Elizabeth,-33.918,25.5701,59.0,63,0,11.5,1619827224,ZA
Ushuaia,-54.8,-68.3,37.4,93,75,5.75,1619827439,AR
Yar-Sale,66.8333,70.8333,15.22,95,84,9.71,1619827439,RU
Jimo,36.3897,120.4622,50.0,76,0,4.47,1619827440,CN
Punta Arenas,-53.15,-70.9167,42.4,93,90,3.44,1619827354,CL
Rikitea,-23.1203,-134.9692,78.93,78,90,20.69,1619827379,PF
Bethel,41.3712,-73.414,53.76,31,40,14.97,1619827194,US
Upernavik,72.7868,-56.1549,26.65,79,100,4.88,1619827440,GL
Naustdal,61.509,5.7168,35.08,65,33,5.75,1619827441,NO
Tuktoyaktuk,69.4541,-133.0374,21.2,79,20,8.05,1619827441,CA
Bredasdorp,-34.5322,20.0403,42.8,87,0,3.44,1619827441,ZA
Luancheng,37.8792,114.6517,50.0,76,58,2.24,1619827442,CN
Kendari,-3.945,122.4989,81.16,72,75,0.92,1619827442,ID
Busselton,-33.65,115.3333,51.44,99,99,5.59,1619827442,AU
Touros,-5.1989,-35.4608,75.2,94,40,3.44,1619827443,BR
Aklavik,68.2191,-135.0107,33.71,64,100,8.05,1619827443,CA
Vostok,46.4856,135.8833,48.02,50,0,4.88,1619827443,RU
Nikolskoye,59.7035,30.7861,36.46,75,0,4.47,1619827443,RU
Gamba,-2.65,10.0,77.67,90,100,3.51,1619827444,GA
Westport,41.1415,-73.3579,56.98,31,1,25.32,1619827444,US
Olinda,-8.0089,-34.8553,78.8,69,40,11.5,1619827444,BR
Mahon,39.8885,4.2658,59.0,94,40,4.61,1619827445,ES
Riyadh,24.6877,46.7219,83.34,14,0,5.75,1619827333,SA
Tasiilaq,65.6145,-37.6368,26.6,86,35,3.44,1619827445,GL
Vrangel',42.7297,133.0839,43.72,79,85,8.28,1619827445,RU
Provideniya,64.3833,-173.3,29.66,67,100,5.66,1619827446,RU
Yellowknife,62.456,-114.3525,33.62,86,90,9.22,1619827205,CA
Castro,-24.7911,-50.0119,52.29,92,33,6.58,1619827446,BR
Avarua,-21.2078,-159.775,80.6,74,100,5.75,1619827229,CK
Wufeng,27.45,104.8333,58.66,69,100,3.31,1619827447,CN
Mount Gambier,-37.8333,140.7667,59.0,51,100,9.22,1619827447,AU
Sanandij,35.3144,46.9923,60.04,42,21,1.21,1619827447,IR
Pasni,25.2631,63.471,84.34,50,99,6.44,1619827448,PK
Yangjiang,21.85,111.9667,76.5,73,61,2.39,1619827266,CN
Mataura,-46.1927,168.8643,54.0,79,83,5.01,1619827448,NZ
Mahébourg,-20.4081,57.7,77.0,83,40,11.5,1619827448,MU
Mandalgovi,45.7625,106.2708,38.46,32,99,14.45,1619827449,MN
Diffa,13.3154,12.6113,86.92,11,7,8.14,1619827449,NE
Bluff,-46.6,168.3333,54.0,79,95,5.01,1619827270,NZ
Carnarvon,-24.8667,113.6333,64.4,55,80,10.36,1619827449,AU
Isangel,-19.55,169.2667,82.4,69,75,6.91,1619827450,VU
New Norfolk,-42.7826,147.0587,61.61,59,75,9.22,1619827450,AU
Eydhafushi,5.1033,73.0708,82.62,74,52,5.44,1619827450,MV
Hong Kong,22.2855,114.1577,75.85,83,97,1.99,1619827155,HK
Caruray,10.3094,119.0128,82.4,78,20,4.61,1619827451,PH
Demyansk,57.643,32.466,33.37,97,84,4.34,1619827451,RU
Hermanus,-34.4187,19.2345,53.01,80,0,1.01,1619827451,ZA
Coquimbo,-29.9533,-71.3436,57.2,88,0,5.91,1619827452,CL
Nyrob,60.733,56.7202,34.92,79,92,10.83,1619827452,RU
Taoudenni,22.6783,-3.9836,77.61,52,95,14.92,1619827394,ML
Port Alfred,-33.5906,26.891,59.27,84,24,13.27,1619827452,ZA
Eskilstuna,59.3666,16.5077,34.79,69,40,4.61,1619827331,SE
Longyearbyen,78.2186,15.6401,12.2,62,40,16.11,1619827453,SJ
Laas,46.6166,10.7002,47.43,93,75,4.61,1619827453,IT
Lakatoro,-16.0999,167.4164,82.8,69,73,11.16,1619827453,VU
Sisimiut,66.9395,-53.6735,34.43,83,62,1.63,1619827454,GL
Wilmington Island,32.0036,-80.9737,79.09,29,1,10.36,1619827454,US
Acapulco de Juárez,16.8634,-99.8901,86.0,70,20,6.91,1619827218,MX
Kathmandu,27.7167,85.3167,59.0,88,75,2.3,1619827246,NP
Vaini,-21.2,-175.2,78.8,89,75,12.66,1619827454,TO
Borazjan,29.2666,51.2159,79.25,23,0,6.49,1619827455,IR
Albany,42.6001,-73.9662,47.23,64,61,17.6,1619827224,US
Arraial do Cabo,-22.9661,-42.0278,72.27,65,31,9.86,1619827455,BR
Milford,41.2223,-73.0565,57.24,31,1,25.32,1619827364,US
Lorengau,-2.0226,147.2712,85.41,64,86,1.14,1619827456,PG
Delījān,33.9905,50.6838,68.68,26,16,2.37,1619827456,IR
Margate,51.3813,1.3862,40.96,81,19,1.99,1619827456,GB
Ayr,55.4627,-4.6339,42.04,65,40,9.22,1619827457,GB
Kyra,49.5776,111.9753,37.69,54,57,2.75,1619827457,RU
Houma,29.5958,-90.7195,76.93,83,1,5.75,1619827236,US
Mar del Plata,-38.0023,-57.5575,60.13,72,0,6.91,1619827200,AR
Etchojoa,26.9167,-109.6333,93.99,24,0,14.58,1619827458,MX
Faya,18.3851,42.4509,62.6,48,20,4.61,1619827458,SA
Seddon,-37.8068,144.8916,69.21,46,25,13.8,1619827458,AU
Wonthaggi,-38.6044,145.5913,64.81,69,22,5.53,1619827459,AU
Upington,-28.4478,21.2561,50.0,71,0,3.44,1619827459,ZA
Sarkand,45.41,79.9186,54.79,87,100,16.84,1619827459,KZ
Saskylakh,71.9167,114.0833,31.08,92,100,6.93,1619827460,RU
Salinas,36.6777,-121.6555,59.29,63,20,17.27,1619827460,US
Kavaratti,10.5669,72.642,83.89,76,14,8.7,1619827460,IN
Shimoda,34.6667,138.95,64.2,77,0,6.91,1619827461,JP
Mattru,7.6244,-11.8332,76.71,90,82,1.54,1619827461,SL
Hasaki,35.7333,140.8333,67.3,73,75,10.36,1619827461,JP
Te Anau,-45.4167,167.7167,49.32,71,79,0.51,1619827462,NZ
Saint-Philippe,-21.3585,55.7679,70.3,78,0,6.91,1619827462,RE
Barrow,71.2906,-156.7887,21.2,79,90,4.61,1619827462,US
Gerede,40.8008,32.1969,48.09,76,18,4.18,1619827462,TR
Feldkirchen an der Donau,48.3452,14.0513,49.98,87,75,13.8,1619827463,AT
Lavrentiya,65.5833,-171.0,25.54,68,36,3.15,1619827463,RU
Menongue,-14.6585,17.691,61.93,90,82,0.63,1619827463,AO
Bauchi,10.5,10.0,82.72,33,9,3.89,1619827464,NG
Pangani,-5.4333,38.9667,74.66,92,80,7.54,1619827464,TZ
Souillac,-20.5167,57.5167,77.0,83,40,11.5,1619827464,MU
Hamilton,39.1834,-84.5333,56.44,29,1,17.27,1619827010,US
St. George's,12.0564,-61.7485,78.8,83,40,11.5,1619827465,GD
Vardø,70.3705,31.1107,34.09,80,99,28.92,1619827465,NO
Sambava,-14.2667,50.1667,74.77,88,8,7.18,1619827465,MG
Coyhaique,-45.5752,-72.0662,51.8,82,75,4.61,1619827323,CL
Hithadhoo,-0.6,73.0833,83.82,72,86,6.6,1619827466,MV
Kapaa,22.0752,-159.319,75.22,78,90,8.05,1619827466,US
Agua Dulce,18.1333,-94.1333,84.2,84,75,11.5,1619827466,MX
Xining,36.6167,101.7667,52.75,31,56,1.81,1619827467,CN
Bambous Virieux,-20.3428,57.7575,77.49,83,40,11.5,1619827467,MU
Mwanza,-2.5167,32.9,67.98,86,93,5.68,1619827468,TZ
East London,-33.0153,27.9116,61.59,77,81,13.09,1619827468,ZA
Jizan,17.3333,42.6667,80.6,69,40,3.44,1619827468,SA
Clyde River,70.4692,-68.5914,21.2,93,90,4.61,1619827468,CA
Codrington,-38.2667,141.9667,67.01,45,100,13.71,1619827469,AU
Sakakah,29.9697,40.2064,75.2,16,0,6.91,1619827469,SA
Tiksi,71.6872,128.8694,30.15,89,91,4.36,1619827469,RU
Baruun-Urt,46.6806,113.2792,34.83,69,42,11.65,1619827470,MN
Rovaniemi,66.5,25.7167,21.2,79,90,10.36,1619827470,FI
Pevek,69.7008,170.3133,19.06,82,100,15.39,1619827470,RU
Chokurdakh,70.6333,147.9167,18.77,83,19,5.48,1619827471,RU
Vao,-22.6667,167.4833,74.28,69,93,22.1,1619827471,NC
Sioux Lookout,50.1001,-91.917,53.6,22,40,12.66,1619827471,CA
Airai,-8.9266,125.4092,66.79,63,40,3.58,1619827472,TL
Vestmannaeyjar,63.4427,-20.2734,38.75,90,89,10.07,1619827472,IS
Merauke,-8.4667,140.3333,80.74,78,30,10.49,1619827472,ID
Grover Beach,35.1216,-120.6213,70.21,63,1,17.27,1619827473,US
Mumford,5.2618,-0.759,82.8,77,100,7.05,1619827473,GH
Morón,-34.6534,-58.6198,65.34,70,0,4.79,1619827385,AR
Husavik,66.0449,-17.3389,32.0,93,90,9.22,1619827473,IS
Saint George,37.1041,-113.5841,92.84,9,1,5.75,1619827211,US
Kruisfontein,-34.0033,24.7314,52.45,70,0,6.69,1619827474,ZA
Scottsbluff,41.8666,-103.6672,82.85,15,1,8.05,1619827216,US
Los Llanos de Aridane,28.6585,-17.9182,60.01,55,75,16.11,1619827475,ES
Nantucket,41.2835,-70.0995,55.22,67,1,19.57,1619827268,US
Ilulissat,69.2167,-51.1,37.4,52,75,3.62,1619827475,GL
Krasnogvardeyskoye,45.8456,41.5186,54.43,93,2,7.92,1619827475,RU
Aksarka,66.5606,67.7975,10.92,94,77,3.24,1619827476,RU
Fairbanks,64.8378,-147.7164,34.54,51,90,12.66,1619827257,US
San Blas,21.5167,-105.2667,84.2,42,40,10.36,1619827476,MX
Santa Cruz de la Sierra,-17.8,-63.1667,72.01,35,0,3.74,1619827200,BO
Dikson,73.5069,80.5464,11.05,95,90,8.77,1619827476,RU
Fortuna,40.5982,-124.1573,58.12,94,20,14.97,1619827477,US
Nemuro,43.3236,145.575,41.0,70,75,21.85,1619827477,JP
Nyurba,63.2842,118.3319,37.71,85,100,7.11,1619827477,RU
Mitsamiouli,-11.3847,43.2844,81.57,77,22,4.79,1619827478,KM
Beibei,29.8256,106.4339,71.29,73,0,1.88,1619827478,CN
Lompoc,34.6391,-120.4579,60.55,82,75,11.5,1619827367,US
Smidovich,48.6,133.8167,45.72,50,4,11.07,1619827479,RU
Kirakira,-10.4544,161.9205,81.14,82,100,5.59,1619827479,SB
Rabo de Peixe,37.8,-25.5833,51.8,76,20,3.44,1619827479,PT
Santa Maria,-29.6842,-53.8069,66.2,68,0,4.61,1619827479,BR
Lebu,-37.6167,-73.65,56.43,91,100,23.76,1619827480,CL
Natchitoches,31.7668,-93.1335,69.8,83,1,8.05,1619827480,US
Minna,9.6139,6.5569,85.41,46,91,5.21,1619827480,NG
Leningradskiy,69.3833,178.4167,18.73,92,100,24.43,1619827481,RU
Nouadhibou,20.931,-17.0347,66.2,94,0,12.66,1619827481,MR
San Quintín,30.4833,-115.95,71.76,53,0,15.14,1619827481,MX
Port Blair,11.6667,92.75,77.0,88,20,2.3,1619827482,IN
Wellington,-41.2866,174.7756,55.24,67,75,17.27,1619827345,NZ
San Jose,37.3394,-121.895,68.07,55,90,14.97,1619827300,US
Kibala,9.1104,18.3463,87.8,45,0,5.14,1619827482,TD
Zhigansk,66.7697,123.3711,30.16,95,100,6.55,1619827482,RU
Fort-Shevchenko,44.5086,50.263,63.0,36,75,13.42,1619827461,KZ
Lae,-6.7221,146.9847,84.22,66,24,3.02,1619827483,PG
Shingū,33.7333,135.9833,66.2,63,75,12.66,1619827483,JP
Luanda,-8.8368,13.2343,78.8,94,40,3.44,1619827359,AO
Eilat,29.5581,34.9482,82.4,23,0,16.11,1619827299,IL
Klyuchi,52.2667,79.1667,45.25,52,87,8.84,1619827484,RU
Methóni,36.8197,21.7049,62.33,71,82,1.14,1619827484,GR
Olafsvik,64.8945,-23.7142,33.58,68,63,28.23,1619827484,IS
Kiunga,-6.1219,141.2906,83.17,70,85,2.73,1619827485,PG
Springbok,-29.6643,17.8865,50.97,43,0,8.84,1619827485,ZA
College,64.8569,-147.8028,34.48,48,90,9.22,1619827485,US
Mahibadhoo,3.7833,72.9667,82.78,69,40,4.85,1619827321,MV
Buala,-8.145,159.5921,82.89,71,100,5.32,1619827486,SB
Sola,-13.8833,167.55,79.32,79,48,17.05,1619827486,VU
Ancud,-41.8697,-73.8203,53.2,100,90,13.8,1619827486,CL
Charyshskoye,51.3978,83.5598,42.21,84,100,2.95,1619827487,RU
Innisfail,-17.5333,146.0333,74.86,82,36,9.48,1619827207,AU
Port Hardy,50.6996,-127.4199,52.21,82,75,5.75,1619827208,CA
Cidreira,-30.1811,-50.2056,68.95,71,0,16.71,1619827487,BR
Trelew,-43.249,-65.3051,66.88,26,100,3.67,1619827487,AR
Āsbe Teferī,9.0833,40.8667,60.55,83,88,1.36,1619827488,ET
Severo-Kuril'sk,50.6789,156.125,35.13,96,100,22.73,1619827488,RU
Peniche,39.3558,-9.3811,55.36,69,44,8.01,1619827488,PT
George Town,5.4112,100.3354,76.44,94,20,3.44,1619827216,MY
Lüderitz,-26.6481,15.1594,63.14,40,0,15.68,1619827489,NA
Manyana,-23.4,21.7167,53.17,27,0,7.47,1619827489,BW
Yangi Marg`ilon,40.4272,71.7189,60.8,63,92,4.61,1619827489,UZ
Turbat,26.0023,63.044,84.76,44,99,3.62,1619827490,PK
Geraldton,-28.7667,114.6,55.4,54,34,8.05,1619827235,AU
Cacoal,-11.4386,-61.4472,72.72,87,19,3.38,1619827490,BR
Adrar,20.5022,-10.0711,77.76,42,34,4.41,1619827490,MR
Kuala Terengganu,5.3302,103.1408,77.0,94,20,3.44,1619827491,MY
Dingle,10.9995,122.6711,83.12,70,98,6.38,1619827491,PH
Novozavidovskiy,56.55,36.4333,43.99,94,92,8.88,1619827491,RU
Saint Paul Harbor,57.79,-152.4072,48.2,66,1,10.36,1619827473,US
Amahai,-3.3333,128.9167,83.62,69,91,1.12,1619827492,ID
Peterhead,57.5058,-1.7981,36.68,93,94,1.14,1619827492,GB
Torbay,47.6666,-52.7314,36.82,100,90,12.66,1619827492,CA
Synya,65.3718,58.0387,33.71,64,71,10.6,1619827493,RU
Mercedes,-34.6515,-59.4307,59.0,74,0,1.99,1619827493,AR
Port Hedland,-20.3167,118.5667,77.0,57,2,9.22,1619827215,AU
Luganville,-15.5333,167.1667,81.28,78,85,10.11,1619827494,VU
Roseburg,43.2165,-123.3417,74.46,31,1,5.75,1619827494,US
Nome,64.5011,-165.4064,25.23,68,75,11.5,1619827494,US
Cherskiy,68.75,161.3,17.11,82,82,1.77,1619827494,RU
Réo,12.3167,-2.4667,94.86,25,88,8.05,1619827495,BF
Norman Wells,65.282,-126.8329,46.4,39,20,11.5,1619827495,CA
Kaitangata,-46.2817,169.8464,55.0,62,75,7.0,1619827495,NZ
Mocuba,-16.8392,36.9856,70.5,98,9,3.71,1619827496,MZ
Uvinza,-5.1036,30.3911,65.34,94,96,1.19,1619827496,TZ
Qaanaaq,77.484,-69.3632,30.33,62,97,7.25,1619827496,GL
Collie,-33.3667,116.15,48.99,92,31,2.1,1619827497,AU
La Orilla,17.9833,-102.2333,81.12,65,75,9.35,1619827497,MX
Katherine,-14.4667,132.2667,78.8,65,0,4.61,1619827497,AU
Chui,-33.6971,-53.4616,59.23,91,61,7.45,1619827498,UY
Marzuq,14.4,46.4667,72.93,65,86,1.3,1619827498,YE
Tuskegee,32.424,-85.6916,71.53,46,1,9.22,1619827498,US
Makat,47.6469,53.3463,53.22,36,26,10.18,1619827499,KZ
Boguchany,58.3814,97.4531,38.53,88,28,4.72,1619827499,RU
Tuatapere,-46.1333,167.6833,54.0,79,94,5.01,1619827499,NZ
Kavieng,-2.5744,150.7967,84.31,68,90,5.19,1619827500,PG
Saquena,-4.6667,-73.5167,72.3,97,48,2.73,1619827500,PE
Breves,-1.6822,-50.4803,73.63,95,81,3.47,1619827500,BR
Borşa,47.6553,24.6633,43.0,85,96,1.72,1619827232,RO
Tucupita,9.0622,-62.051,74.19,90,93,3.49,1619827501,VE
Raudeberg,61.9875,5.1352,39.99,80,12,14.94,1619827501,NO
Purificación,3.8587,-74.9313,70.95,89,99,0.78,1619827502,CO
Valparaíso,-33.0393,-71.6273,57.69,82,0,5.75,1619827279,CL
Mogadishu,2.0371,45.3438,81.84,71,62,9.33,1619827502,SO
Tromsø,69.6496,18.957,24.06,93,75,1.14,1619827502,NO
Pringsewu,-5.3582,104.9744,74.77,95,86,0.85,1619827503,ID
Bandarbeyla,9.4942,50.8122,82.83,74,93,3.33,1619827503,SO
Hofn,64.2539,-15.2082,36.09,65,100,10.98,1619827475,IS
Makkah al Mukarramah,21.4267,39.8261,83.68,55,99,3.36,1619827503,SA
Villa Constitución,-33.2278,-60.3297,60.01,76,0,4.7,1619827504,AR
Kabanjahe,3.1001,98.4908,77.0,94,40,4.61,1619827504,ID
Kyzyl-Suu,42.3414,78.0056,50.95,60,98,1.99,1619827504,KG
North Platte,41.1239,-100.7654,81.57,24,1,11.5,1619827428,US
Vila Velha,-20.3297,-40.2925,75.29,73,0,10.36,1619827505,BR
Pombas,17.1503,-25.0201,71.6,68,20,19.57,1619827505,CV
Ligayan,4.6533,119.4706,84.45,67,93,6.4,1619827506,PH
Imbituba,-28.24,-48.6703,64.4,82,0,3.44,1619827506,BR
Lodja,-3.4833,23.4333,69.26,99,91,0.49,1619827506,CD
Son La,21.3167,103.9,69.85,92,71,1.59,1619827507,VN
Bosanska Kostajnica,45.2159,16.5444,60.01,30,100,1.99,1619827507,HR
Cristalina,-16.7686,-47.6136,62.44,87,100,4.59,1619827303,BR
Ekhabi,53.5102,142.9671,34.34,82,100,8.08,1619827507,RU
Mossamedes,-15.1961,12.1522,75.25,75,12,5.21,1619827508,AO
Ţahţā,26.7693,31.5021,77.95,15,0,9.22,1619827508,EG
Puerto Ayora,-0.7393,-90.3518,75.43,77,39,9.19,1619827508,EC
San Cristobal,7.7669,-72.225,64.29,97,100,1.99,1619827509,VE
Ocamonte,6.3401,-73.1223,60.75,97,100,1.19,1619827509,CO
Yerbogachën,61.2767,108.0108,36.43,90,100,9.19,1619827509,RU
Volot,57.9278,30.7025,30.87,93,53,5.3,1619827510,RU
Khovd,48.0056,91.6419,58.91,30,100,10.02,1619827510,MN
Ponta do Sol,32.6667,-17.1,54.88,57,87,1.99,1619827510,PT
Neuruppin,52.9282,12.8031,41.68,90,87,4.74,1619827511,DE
Coffs Harbour,-30.3,153.1333,65.26,94,40,6.91,1619827511,AU
Katangli,51.7102,143.2326,34.84,87,100,15.84,1619827511,RU
Laguna,38.421,-121.4238,84.16,18,1,8.05,1619827512,US
Grand-Lahou,5.1367,-5.0242,81.18,83,74,9.26,1619827512,CI
Outjo,-20.1167,16.15,65.8,35,19,5.41,1619827278,NA
Barra de Tecoanapa,16.5167,-98.75,82.81,69,4,11.39,1619827512,MX
Shache,38.4167,77.2406,67.46,15,0,7.18,1619827513,CN
Lloydminster,53.2835,-110.0016,71.6,20,75,13.8,1619827513,CA
Labuhan,-6.8844,112.2051,79.3,84,91,6.44,1619827513,ID
Koumac,-20.5667,164.2833,78.66,62,83,7.49,1619827514,NC
Nelson Bay,-32.7167,152.15,69.35,88,5,5.75,1619827514,AU
Wau,7.7029,27.9953,76.51,71,77,4.14,1619827514,SS
‘Āhuimanu,21.4447,-157.8378,78.42,69,75,12.66,1619827515,US
Kalangala,-0.3089,32.225,71.6,83,20,2.3,1619827515,UG
Pedasí,7.5333,-80.0333,79.92,76,75,8.39,1619827515,PA
Belyy Yar,53.6039,91.3903,35.6,87,0,3.22,1619827516,RU
Lewisville,33.0462,-96.9942,66.38,88,90,11.5,1619826937,US
Lata,40.1629,-8.3327,50.41,90,5,5.01,1619827516,PT
Tautira,-17.7333,-149.15,86.0,66,75,5.75,1619827516,PF
Carinhanha,-14.3047,-43.765,77.41,56,100,10.38,1619827517,BR
Iracoubo,5.4802,-53.2011,75.07,93,100,10.71,1619827517,GF
Alice Springs,-23.7,133.8833,71.37,30,55,9.26,1619827395,AU
Piranshahr,36.701,45.1413,54.32,69,62,2.51,1619827517,IR
Russell,32.3502,-85.1999,70.75,49,40,6.91,1619827485,US
Cedar City,37.6775,-113.0619,80.35,10,1,6.42,1619827337,US
Hirara,24.8,125.2833,77.0,88,75,11.5,1619827518,JP
Alor Star,6.121,100.3601,75.11,100,20,2.3,1619827518,MY
Thompson,55.7435,-97.8558,33.8,93,90,5.75,1619827519,CA
Novyy Urgal,51.0736,132.5642,45.23,57,94,1.83,1619827519,RU
Vicksburg,32.3526,-90.8779,68.0,83,1,3.89,1619827456,US
Kutum,14.2,24.6667,76.84,15,56,7.54,1619827519,SD
Visnes,59.3556,5.2242,35.6,87,20,6.91,1619827520,NO
Bereda,43.2686,-7.5406,42.01,96,69,1.01,1619827520,ES
Øksfjord,70.2396,22.3479,28.08,64,75,20.71,1619827520,NO
Nueva Esparta,13.7836,-87.8386,83.16,62,20,8.05,1619827520,SV
Las Palmas,28.4204,-14.0131,64.4,59,0,8.05,1619827521,ES
Along,28.1667,94.7667,67.3,79,89,2.01,1619827521,IN
Lobito,-12.3481,13.5456,78.55,83,85,1.7,1619827517,AO
Aykhal,66.0,111.5,30.96,95,100,13.24,1619827522,RU
Matara,5.9485,80.5353,77.36,87,88,1.25,1619827522,LK
Inta,66.0317,60.1659,29.25,68,57,9.64,1619827522,RU
Marawi,7.9986,124.2928,81.0,78,34,5.01,1619827523,PH
Cayenne,4.9333,-52.3333,77.38,100,0,3.44,1619827523,GF
Beringovskiy,63.05,179.3167,24.31,74,86,13.51,1619827523,RU
Kumul,42.8,93.45,71.98,13,15,9.19,1619827524,CN
Daliao,5.8611,124.9533,86.0,66,20,8.05,1619827524,PH
Fukuechō,32.6881,128.8419,66.2,72,75,14.97,1619827314,JP
Micheweni,-4.9667,39.8333,78.42,86,46,6.71,1619827524,TZ
Callaguip,18.0714,120.4867,84.2,65,20,2.3,1619827525,PH
Talnakh,69.4865,88.3972,19.83,83,26,2.82,1619827525,RU
Iralaya,15.0,-83.2333,80.28,73,4,10.87,1619827332,HN
Ilhabela,-23.7781,-45.3581,70.18,74,79,8.1,1619827525,BR
Kunashak,55.7032,61.5498,32.0,59,0,2.24,1619827526,RU
Port-Cartier,50.0334,-66.8654,44.38,70,75,8.05,1619827526,CA
Constitución,-35.3333,-72.4167,57.15,85,100,10.58,1619827460,CL
Saint-Augustin,51.226,-58.6502,40.98,81,87,16.91,1619827526,CA
Coahuayana Viejo,18.7333,-103.6833,84.2,48,40,11.5,1619827527,MX
Hilo,19.7297,-155.09,78.31,51,1,12.66,1619827513,US
Ransang,8.9603,117.5828,82.62,67,57,2.86,1619827527,PH
Grindavik,63.8424,-22.4338,33.8,75,20,20.71,1619827527,IS
Kumluca,36.3703,30.2869,74.34,42,16,6.49,1619827528,TR
Wukari,7.85,9.7833,84.47,60,92,8.93,1619827528,NG
Vicuña,-30.0319,-70.7081,59.0,57,24,0.85,1619827528,CL
Kandrian,-6.2167,149.55,83.3,75,55,6.42,1619827529,PG
Altay,47.8667,88.1167,60.21,42,97,5.21,1619827529,CN
Tura,25.5198,90.2201,69.03,69,24,5.14,1619827529,IN
Atar,20.5169,-13.0499,82.09,18,29,3.74,1619827529,MR
Kieta,-6.2167,155.6333,84.22,71,59,4.27,1619827530,PG
Colares,38.7992,-9.4469,55.99,72,9,16.49,1619827530,PT
Oxford,51.7522,-1.256,40.62,81,90,3.44,1619827312,GB
Manjacaze,-24.7117,33.8828,69.87,87,94,9.31,1619827531,MZ
Antofagasta,-23.65,-70.4,60.8,82,20,12.66,1619827353,CL
High Rock,26.6208,-78.2833,78.8,78,0,4.61,1619827531,BS
Ormara,25.2088,64.6357,83.35,56,76,6.08,1619827531,PK
Saint-François,46.4154,3.9054,45.77,87,90,3.44,1619827532,FR
Sitka,57.0531,-135.33,46.4,87,90,6.91,1619827532,US
Gwadar,25.1216,62.3254,84.85,49,99,9.53,1619827532,PK
Poum,-20.2333,164.0167,76.55,67,68,8.43,1619827492,NC
Townsville,-19.25,146.8,78.8,61,40,10.36,1619827451,AU
Teahupoo,-17.8333,-149.2667,86.0,66,75,5.75,1619827533,PF
Beloha,-25.1667,45.05,69.71,74,7,3.94,1619827533,MG
Meulaboh,4.1363,96.1285,76.59,88,73,3.96,1619827534,ID
Senno,59.5336,33.9167,25.0,86,64,4.45,1619827534,RU
Zaysan,47.4667,84.8667,52.43,72,91,7.78,1619827534,KZ
Bengkulu,-3.8004,102.2655,75.81,86,96,4.47,1619827450,ID
Tongzi,28.7829,105.0877,74.79,66,100,1.77,1619827535,CN
Kawalu,-7.3817,108.2082,74.68,87,83,1.7,1619827535,ID
Comodoro Rivadavia,-45.8667,-67.5,64.4,55,0,4.61,1619827535,AR
Sawākin,19.1059,37.3321,83.86,67,100,4.16,1619827535,SD
Porto Velho,-8.7619,-63.9039,77.0,78,20,2.13,1619827536,BR
Palmares do Sul,-30.2578,-50.5097,67.57,70,0,15.9,1619827536,BR
Khatanga,71.9667,102.5,33.28,89,100,9.69,1619827536,RU
Ahipara,-35.1667,173.1667,66.11,65,63,13.33,1619827477,NZ
Severo-Yeniseyskiy,60.3725,93.0408,32.02,93,100,12.44,1619827537,RU
Province of Trapani,37.8333,12.6667,69.26,78,0,12.66,1619827537,IT
Guerrero Negro,27.9769,-114.0611,78.84,35,0,17.11,1619827538,MX
Ashford,51.1459,0.8728,38.64,42,40,1.14,1619827412,GB
Shawville,45.6001,-76.4827,36.41,95,100,4.0,1619827538,CA
Zelenets,61.8849,50.7489,39.2,93,75,11.18,1619827538,RU
Sørland,67.667,12.6934,35.76,58,100,11.97,1619827539,NO
Okny,47.5404,29.46,53.47,88,25,4.81,1619827539,UA
Buraidah,26.326,43.975,73.4,35,0,4.61,1619827539,SA
Andenes,69.3143,16.1194,28.4,80,100,8.05,1619827540,NO
Vysokogornyy,50.1167,139.15,35.19,87,100,5.26,1619827540,RU
Tegul'det,57.3064,88.1667,39.04,86,2,6.64,1619827540,RU
Xiaoweizhai,26.1903,107.5125,67.23,82,100,1.7,1619827541,CN
Gamboula,4.1178,15.1393,67.51,87,94,1.72,1619827541,CF
Anadyr,64.75,177.4833,19.4,86,75,4.47,1619827541,RU
Rawson,-43.3002,-65.1023,65.39,34,100,3.29,1619827541,AR
Gambēla,8.25,34.5833,74.01,80,100,2.95,1619827542,ET
San Nicolas,18.1725,120.5953,84.2,65,20,2.3,1619827542,PH
Agirish,61.9247,63.0231,23.83,89,10,2.8,1619827542,RU
Marihatag,8.7936,126.2969,82.27,69,95,1.97,1619827543,PH
Alta Gracia,-31.6529,-64.4283,62.1,67,0,9.22,1619827543,AR
Shangzhi,45.2167,127.9667,51.8,52,100,5.95,1619827543,CN
Verkhoyansk,67.5447,133.385,31.62,92,97,0.98,1619827544,RU
Itoman,26.1247,127.6694,74.59,88,75,10.36,1619827544,JP
Strezhevoy,60.7333,77.5889,35.6,93,40,6.71,1619827544,RU
Jérémie,18.65,-74.1167,78.21,78,27,4.81,1619827545,HT
Kholodnyy,62.7167,147.95,32.56,96,100,1.14,1619827545,RU
Mtwara,-10.2667,40.1833,75.07,93,34,7.05,1619827545,TZ
Tabou,4.423,-7.3528,81.05,77,100,4.9,1619827546,CI
Nanortalik,60.1432,-45.2371,38.66,70,18,10.49,1619827546,GL
Tottori-shi,35.5,134.2333,57.2,58,75,9.22,1619827262,JP
Mayumba,-3.432,10.6554,78.67,88,100,3.09,1619827546,GA
Iqaluit,63.7506,-68.5145,35.29,75,90,17.27,1619827547,CA
Yanam,16.7333,82.2167,75.54,88,1,1.03,1619827547,IN
Necochea,-38.5473,-58.7368,57.99,75,0,5.01,1619827547,AR
Padang,-0.9492,100.3543,75.2,94,40,2.3,1619827547,ID
Monrovia,6.3005,-10.7969,75.2,94,75,6.8,1619827548,LR
Silver City,32.7701,-108.2803,67.86,21,1,13.8,1619827362,US
Mikuni,36.2171,136.1519,59.0,67,90,4.61,1619827548,JP
Xicoténcatl,23.0167,-98.8833,86.63,58,95,5.99,1619827548,MX
Roald,62.5833,6.1333,34.14,80,40,5.75,1619827549,NO
Rio Brilhante,-21.8019,-54.5464,66.97,38,0,5.73,1619827549,BR
Kovdor,67.5662,30.4758,19.26,93,61,11.7,1619827341,RU
Narsaq,60.9167,-46.05,50.0,29,17,24.16,1619827549,GL
Carolina,18.3808,-65.9574,77.38,78,20,8.05,1619827550,PR
Vaitape,-16.5167,-151.75,80.44,73,100,3.22,1619827550,PF
Esperance,-33.8667,121.9,51.8,93,49,6.91,1619827550,AU
Breyten,-26.3018,29.987,47.32,95,78,5.99,1619827551,ZA
São João da Barra,-21.6403,-41.0511,69.58,72,54,9.69,1619827465,BR
Aksu,41.1231,80.2644,65.39,16,0,3.11,1619827551,CN
Kitgum,3.2783,32.8867,65.19,95,89,1.32,1619827552,UG
Klaksvík,62.2266,-6.589,35.6,87,75,9.42,1619827552,FO
Ubud,-8.5098,115.2654,78.8,89,20,3.44,1619827552,ID
Bida,9.0833,6.0167,84.06,57,92,4.54,1619827553,NG
Tallahassee,30.4383,-84.2807,78.93,61,75,5.75,1619827509,US
Minudasht,37.2289,55.3747,61.23,79,1,0.67,1619827553,IR
Teya,60.3778,92.6267,35.35,93,100,11.72,1619827553,RU
Zhezkazgan,47.8043,67.7144,46.24,44,1,6.22,1619827554,KZ
Tombouctou,20.0,-3.0,82.89,37,100,16.82,1619827554,ML
Tashara,55.5195,83.5094,41.0,60,45,1.01,1619827554,RU
Katobu,-4.9408,122.5276,81.03,69,30,2.53,1619827555,ID
Srandakan,-7.9386,110.2506,78.17,83,69,4.5,1619827555,ID
Huari,-9.3333,-77.2333,43.93,91,76,0.31,1619827555,PE
Lyubech,51.7026,30.6569,50.34,92,92,5.66,1619827556,UA
Limulunga,-15.0969,23.1376,67.95,83,99,4.81,1619827556,ZM
Río Gallegos,-51.6226,-69.2181,41.0,93,0,11.5,1619827556,AR
Fort Walton Beach,30.4058,-86.6188,75.83,73,75,3.44,1619827557,US
La Ronge,55.1001,-105.2842,66.2,30,61,8.05,1619827557,CA
Port-Gentil,-0.7193,8.7815,80.6,89,20,1.14,1619827557,GA
Touho,-20.7833,165.2333,76.68,66,99,20.22,1619827558,NC
Ekibastuz,51.6667,75.3667,45.21,56,53,15.88,1619827558,KZ
Yelkhovka,53.8667,50.2832,50.0,50,0,6.71,1619827558,RU
Cap Malheureux,-19.9842,57.6142,78.01,79,46,5.99,1619827558,MU
Gallatin,45.6666,-111.2008,78.1,16,1,18.41,1619827559,US
Byron Bay,-28.65,153.6167,65.52,78,75,12.66,1619827559,AU
Cruzeiro do Sul,-29.5128,-51.9853,59.07,91,0,1.21,1619827559,BR
Plaster Rock,46.9065,-67.39,39.65,81,90,10.36,1619827560,CA
Esim,4.8699,-2.2405,81.57,80,86,6.78,1619827395,GH
Morondava,-20.2833,44.2833,75.7,84,0,7.74,1619827560,MG
Madison,34.7334,-86.5667,69.44,46,1,6.91,1619827278,US
Flin Flon,54.7682,-101.865,46.4,49,75,4.61,1619827561,CA
Dharān,26.8125,87.2835,75.92,38,85,6.58,1619827561,NP
Baykit,61.67,96.37,35.22,95,95,4.54,1619827562,RU
Pacific Grove,36.6177,-121.9166,56.03,63,40,10.36,1619827562,US
Umluj,25.0213,37.2685,84.22,38,0,9.22,1619827562,SA
Sechura,-5.5569,-80.8222,74.91,64,55,16.15,1619827563,PE
Luena,-11.7833,19.9167,60.06,95,87,3.06,1619827563,AO
La Romana,18.4273,-68.9728,78.8,89,40,6.91,1619827563,DO
Tokomaru,-40.4667,175.5,57.7,54,19,5.99,1619827564,NZ
Hualmay,-11.0964,-77.6139,66.81,87,16,7.74,1619827564,PE
Aripuanã,-9.1667,-60.6333,72.73,95,94,0.38,1619827564,BR
Bilibino,68.0546,166.4372,15.31,76,46,2.17,1619827564,RU
Arlit,18.7369,7.3853,86.41,6,0,7.94,1619827565,NE
Tigre,-34.426,-58.5796,61.9,88,0,4.61,1619827565,AR
Acaraú,-2.8856,-40.12,77.86,86,64,8.32,1619827565,BR
Goderich,43.7501,-81.7165,42.8,56,12,26.46,1619827566,CA
Bose,45.4612,8.0137,54.01,97,93,1.9,1619827566,IT
Naze,28.3667,129.4833,73.4,83,75,24.16,1619827566,JP
Palu,-0.8917,119.8707,80.38,84,99,2.39,1619827567,ID
Smithers,54.7804,-127.1743,50.0,62,90,3.44,1619827567,CA
Yulara,-25.2406,130.9889,68.0,28,94,5.75,1619827567,AU
Praia,14.9215,-23.5087,71.6,83,20,13.8,1619827446,CV
Krasnovishersk,60.4078,57.082,35.24,82,99,9.89,1619827568,RU
Camopi,3.1655,-52.3158,71.87,99,100,3.02,1619827568,GF
Conde,-7.2597,-34.9075,75.2,100,20,5.75,1619827568,BR
Diego de Almagro,-26.3667,-70.05,58.06,57,82,0.85,1619827569,CL
Mae Sot,16.7167,98.5667,75.2,94,75,0.63,1619827569,TH
Hamada,34.8833,132.0833,53.6,87,75,3.44,1619827569,JP
Santa Rosa,14.3122,121.1114,84.96,66,20,5.75,1619827570,PH
Kupang,-10.1667,123.5833,80.73,74,80,7.25,1619827570,ID
Cabinda,-5.55,12.2,79.27,85,100,4.38,1619827557,AO
Funadhoo,6.15,73.2667,83.25,75,71,6.87,1619827570,MV
Saint Anthony,45.0205,-93.218,58.89,26,1,8.05,1619827571,US
Sann,26.0418,68.1378,80.6,50,20,2.3,1619827571,PK
San Patricio,28.017,-97.5169,74.19,88,90,8.05,1619827525,US
Tessalit,20.1986,1.0114,81.32,32,97,23.85,1619827571,ML
Tocopilla,-22.092,-70.1979,66.79,74,17,8.93,1619827572,CL
Sishui,35.6489,117.2758,55.87,45,56,5.37,1619827292,CN
Gua Musang,4.8823,101.9644,74.07,97,100,0.2,1619827572,MY
Kunda,25.7167,81.5167,84.34,25,2,6.51,1619827572,IN
Takoradze,4.8845,-1.7554,81.63,80,85,7.11,1619827573,GH
Hambantota,6.1241,81.1185,79.45,81,22,3.53,1619827573,LK
Kosikha,53.3617,84.5822,48.2,27,0,2.24,1619827573,RU
Boddam,57.4667,-1.7833,36.66,93,94,1.14,1619827574,GB
Bayan,46.0833,127.4,50.83,59,100,6.42,1619827574,CN
Urucará,-2.5364,-57.76,74.7,95,98,1.05,1619827574,BR
Siderno,38.2779,16.302,64.71,94,90,5.75,1619827515,IT
Coos Bay,43.3665,-124.2179,56.82,94,90,6.91,1619827487,US
Mwingi,-0.9344,38.0601,65.03,92,49,3.91,1619827575,KE
Kisangani,0.5167,25.2,71.04,96,100,0.89,1619827575,CD
Tonj,7.2737,28.6822,75.2,76,88,3.38,1619827575,SS
Parksville,49.3163,-124.3195,57.88,55,55,12.66,1619827438,CA
Boa Vista,2.8197,-60.6733,82.4,78,40,3.44,1619827576,BR
Bathsheba,13.2167,-59.5167,78.8,61,20,12.66,1619827576,BB
Galesburg,40.9478,-90.3712,64.4,24,1,4.34,1619827576,US
Acajutla,13.5928,-89.8275,83.01,45,20,6.91,1619827577,SV
Deputatsky,69.3,139.9,24.1,92,96,3.8,1619827577,RU
Paralímni,35.0375,33.9833,71.24,38,0,6.91,1619827577,CY
Nur,52.6683,22.3221,45.16,86,99,4.36,1619827578,PL
Grand Gaube,-20.0064,57.6608,78.01,79,44,5.99,1619827578,MU
Maţāy,28.419,30.7792,80.4,14,0,9.66,1619827578,EG
Teguise,29.0605,-13.564,62.6,63,20,8.05,1619827579,ES
Port Lincoln,-34.7333,135.8667,71.55,39,100,17.54,1619827579,AU
Mendi,-6.1761,143.6513,67.57,61,32,3.47,1619827579,PG
Broome,42.2506,-75.833,38.53,81,90,21.85,1619827579,US
Werda,-25.2667,23.2833,56.05,38,0,7.18,1619827580,BW
Kudirkos Naumiestis,54.7731,22.8631,39.33,88,99,3.44,1619827580,LT
Weinan,34.5036,109.5089,57.2,58,0,2.24,1619827299,CN
Kyzyl-Mazhalyk,51.1333,90.6,44.62,88,100,7.78,1619827580,RU
Oussouye,12.485,-16.5469,73.36,88,0,11.5,1619827581,SN
Chipinge,-20.1883,32.6236,61.56,93,62,3.53,1619827581,ZW
Ambon City,-3.6954,128.1814,84.2,74,40,3.44,1619827581,ID
Tiruchchendur,8.4833,78.1167,82.78,77,36,4.14,1619827582,IN
Kahului,20.8947,-156.47,76.24,78,40,24.16,1619827311,US
Buritis,-15.6178,-46.4233,68.56,90,100,2.19,1619827583,BR
Ramsar,36.9226,50.6426,64.06,87,96,2.15,1619827583,IR
Cornélio Procópio,-23.1811,-50.6467,68.0,68,40,6.91,1619827583,BR
Phaltan,17.9833,74.4333,81.81,39,47,3.42,1619827584,IN
Williams Lake,52.1415,-122.1445,62.6,20,75,17.27,1619827508,CA
Payo,-3.7508,103.6372,73.2,96,97,1.34,1619827584,ID
Damara,4.9608,18.7035,78.8,65,20,3.44,1619827584,CF
Mandiana,10.6333,-8.6833,85.24,41,46,5.86,1619827585,GN
Twin Falls,42.3505,-114.6445,81.72,15,1,14.97,1619827585,US
Carutapera,-1.195,-46.02,74.88,91,87,4.18,1619827585,BR
Havre-St-Pierre,50.2334,-63.5986,44.6,76,90,5.75,1619827585,CA
Brae,60.3964,-1.353,37.4,87,91,5.75,1619827586,GB
Naantali,60.4674,22.0243,28.22,93,0,2.3,1619827586,FI
Saint-Pierre,-21.3393,55.4781,71.22,78,0,6.91,1619827483,RE
Uruaçu,-14.5247,-49.1408,70.95,88,99,3.53,1619827500,BR
Gdynia,54.5189,18.5319,30.06,100,67,1.14,1619827587,PL
Eureka,40.8021,-124.1637,58.37,78,100,3.0,1619827524,US
Welahan,-6.8,110.7167,80.6,83,20,2.3,1619827587,ID
Paka,4.6374,103.4368,75.2,100,20,1.14,1619827587,MY
Gorontalo,0.5412,123.0595,81.61,80,72,1.07,1619827588,ID
Thunder Bay,48.4001,-89.3168,54.09,18,20,9.22,1619827588,CA
Cabedelo,-6.9811,-34.8339,75.2,100,20,5.75,1619827588,BR
Christchurch,-43.5333,172.6333,56.91,67,75,5.75,1619827507,NZ
Aswān,24.0934,32.907,85.51,14,0,7.7,1619827540,EG
Bairiki Village,1.3292,172.9752,87.8,70,40,8.05,1619827589,KI
Lagunas,-5.2269,-75.6753,76.55,79,83,2.73,1619827589,PE
Ferrol,43.4832,-8.2369,48.45,87,0,2.3,1619827590,ES
Arrondissement de Beaune,47.0833,4.75,43.02,93,0,4.61,1619827590,FR
Astoria,46.1879,-123.8313,55.49,94,90,9.22,1619827590,US
Manggar,-2.8833,108.2667,82.99,74,99,4.29,1619827591,ID
Bonavista,48.6499,-53.1147,38.89,75,100,3.44,1619827591,CA
Derzhavīnsk,51.1,66.3167,44.06,62,18,6.26,1619827591,KZ
São José da Coroa Grande,-8.8978,-35.1478,77.56,80,100,9.37,1619827591,BR
Cieza,38.24,-1.4199,60.64,80,100,4.0,1619827592,ES
Vilcún,-38.65,-72.2333,55.4,100,90,8.05,1619827592,CL
Lagoa,39.05,-27.9833,59.13,72,100,9.13,1619827581,PT
Great Falls,47.5002,-111.3008,75.45,11,1,31.07,1619827411,US
Boda,4.3189,17.4695,71.01,88,99,2.26,1619827593,CF
Panzhihua,26.5851,101.7128,69.08,63,100,0.29,1619827593,CN
Baoning,25.3378,110.026,66.2,88,0,0.22,1619827593,CN
